$GNRMC,102140.00,A,3801.27758,N,00446.88703,W,0.561,,011221,,,A*7E
$GNVTG,,T,,M,0.561,N,1.038,K,A*35
$GNGGA,102140.00,3801.27758,N,00446.88703,W,1,04,3.29,546.4,M,47.8,M,,*55
$GNGSA,A,3,06,30,,,,,,,,,,,10.39,3.29,9.86*2D
$GNGSA,A,3,79,71,,,,,,,,,,,10.39,3.29,9.86*20
$GPGSV,3,1,09,02,51,274,07,06,45,193,28,07,64,093,,09,39,054,*79
$GPGSV,3,2,09,11,60,261,,13,15,250,06,20,48,313,08,29,04,316,*79
$GPGSV,3,3,09,30,57,167,19*49
$GLGSV,2,1,06,69,24,069,,71,24,294,16,79,30,049,25,80,40,123,*65
$GLGSV,2,2,06,84,06,193,,85,37,245,*68
$GNGLL,3801.27758,N,00446.88703,W,102140.00,A,A*64

$GNRMC,102141.00,A,3801.27637,N,00446.88439,W,2.331,106.39,011221,,,A*6F
$GNVTG,106.39,T,,M,2.331,N,4.316,K,A*2D
$GNGGA,102141.00,3801.27637,N,00446.88439,W,1,04,3.28,546.1,M,47.8,M,,*52
$GNGSA,A,3,06,30,,,,,,,,,,,10.37,3.28,9.84*20
$GNGSA,A,3,79,71,,,,,,,,,,,10.37,3.28,9.84*2D
$GPGSV,3,1,09,02,51,274,,06,45,193,28,07,64,093,,09,39,054,*7E
$GPGSV,3,2,09,11,60,261,,13,15,250,06,20,48,313,08,29,04,316,*79
$GPGSV,3,3,09,30,57,167,18*48
$GLGSV,2,1,06,69,24,069,,71,24,294,15,79,30,049,25,80,40,123,*66
$GLGSV,2,2,06,84,06,193,,85,37,245,*68
$GNGLL,3801.27637,N,00446.88439,W,102141.00,A,A*67

$GNRMC,102142.00,A,3801.27622,N,00446.88383,W,2.152,112.35,011221,,,A*60
$GNVTG,112.35,T,,M,2.152,N,3.985,K,A*24
$GNGGA,102142.00,3801.27622,N,00446.88383,W,1,04,3.27,546.1,M,47.8,M,,*5C
$GNGSA,A,3,06,30,,,,,,,,,,,10.36,3.27,9.83*29
$GNGSA,A,3,79,71,,,,,,,,,,,10.36,3.27,9.83*24
$GPGSV,3,1,09,02,51,274,18,06,45,193,28,07,64,093,,09,39,054,*77
$GPGSV,3,2,09,11,60,260,,13,15,250,06,20,48,313,08,29,04,316,*78
$GPGSV,3,3,09,30,57,167,18*48
$GLGSV,2,1,06,69,24,069,,71,24,294,14,79,30,049,25,80,40,123,*67
$GLGSV,2,2,06,84,06,193,,85,37,245,06*6E
$GNGLL,3801.27622,N,00446.88383,W,102142.00,A,A*66

$GNRMC,102143.00,A,3801.27669,N,00446.88452,W,1.102,,011221,,,A*79
$GNVTG,,T,,M,1.102,N,2.041,K,A*38
$GNGGA,102143.00,3801.27669,N,00446.88452,W,1,04,3.27,546.2,M,47.8,M,,*5A
$GNGSA,A,3,06,30,,,,,,,,,,,10.34,3.27,9.81*29
$GNGSA,A,3,79,71,,,,,,,,,,,10.34,3.27,9.81*24
$GPGSV,3,1,09,02,51,274,17,06,45,193,28,07,64,093,,09,39,054,06*7E
$GPGSV,3,2,09,11,60,260,,13,15,250,06,20,48,313,08,29,04,316,*78
$GPGSV,3,3,09,30,57,167,18*48
$GLGSV,2,1,06,69,24,069,,71,24,294,13,79,30,049,25,80,40,123,*60
$GLGSV,2,2,06,84,06,193,,85,37,245,09*61
$GNGLL,3801.27669,N,00446.88452,W,102143.00,A,A*63

$GNRMC,102144.00,A,3801.27646,N,00446.88388,W,1.459,,011221,,,A*78
$GNVTG,,T,,M,1.459,N,2.702,K,A*33
$GNGGA,102144.00,3801.27646,N,00446.88388,W,1,04,3.26,546.1,M,47.8,M,,*52
$GNGSA,A,3,06,30,,,,,,,,,,,10.32,3.26,9.79*29
$GNGSA,A,3,79,71,,,,,,,,,,,10.32,3.26,9.79*24
$GPGSV,3,1,09,02,51,274,17,06,45,193,28,07,64,093,,09,39,054,07*7F
$GPGSV,3,2,09,11,60,260,,13,15,250,06,20,48,313,08,29,04,316,*78
$GPGSV,3,3,09,30,57,167,17*47
$GLGSV,2,1,06,69,24,069,,71,24,294,12,79,30,049,25,80,40,123,*61
$GLGSV,2,2,06,84,06,193,,85,37,245,07*6F
$GNGLL,3801.27646,N,00446.88388,W,102144.00,A,A*69

$GNRMC,102145.00,A,3801.27638,N,00446.88369,W,1.327,,011221,,,A*71
$GNVTG,,T,,M,1.327,N,2.458,K,A*31
$GNGGA,102145.00,3801.27638,N,00446.88369,W,1,04,3.26,546.1,M,47.8,M,,*55
$GNGSA,A,3,06,30,,,,,,,,,,,10.30,3.26,9.78*2A
$GNGSA,A,3,79,71,,,,,,,,,,,10.30,3.26,9.78*27
$GPGSV,3,1,09,02,51,274,17,06,45,193,28,07,64,093,,09,39,054,09*71
$GPGSV,3,2,09,11,60,260,,13,15,250,06,20,48,313,08,29,04,316,*78
$GPGSV,3,3,09,30,57,167,17*47
$GLGSV,2,1,06,69,24,069,,71,24,294,13,79,30,049,25,80,40,123,*60
$GLGSV,2,2,06,84,06,193,,85,37,245,08*60
$GNGLL,3801.27638,N,00446.88369,W,102145.00,A,A*6E

$GNRMC,102146.00,A,3801.27613,N,00446.88326,W,1.170,,011221,,,A*70
$GNVTG,,T,,M,1.170,N,2.167,K,A*38
$GNGGA,102146.00,3801.27613,N,00446.88326,W,1,05,1.67,545.6,M,47.8,M,,*56
$GNGSA,A,3,02,06,30,,,,,,,,,,4.61,1.67,4.29*17
$GNGSA,A,3,79,71,,,,,,,,,,,4.61,1.67,4.29*18
$GPGSV,3,1,09,02,51,274,16,06,45,193,28,07,64,093,,09,39,054,07*7E
$GPGSV,3,2,09,11,60,260,,13,15,250,06,20,48,313,08,29,04,316,*78
$GPGSV,3,3,09,30,57,167,17*47
$GLGSV,2,1,06,69,24,069,,71,24,294,15,79,30,049,25,80,40,123,*66
$GLGSV,2,2,06,84,06,193,,85,37,245,08*60
$GNGLL,3801.27613,N,00446.88326,W,102146.00,A,A*6F

$GNRMC,102147.00,A,3801.27586,N,00446.88274,W,1.180,,011221,,,A*77
$GNVTG,,T,,M,1.180,N,2.185,K,A*3B
$GNGGA,102147.00,3801.27586,N,00446.88274,W,1,05,1.67,545.1,M,47.8,M,,*59
$GNGSA,A,3,02,06,30,,,,,,,,,,4.61,1.67,4.29*17
$GNGSA,A,3,79,71,,,,,,,,,,,4.61,1.67,4.29*18
$GPGSV,3,1,09,02,51,274,16,06,45,193,28,07,64,093,,09,39,054,07*7E
$GPGSV,3,2,09,11,60,260,,13,15,250,06,20,48,313,08,29,04,316,*78
$GPGSV,3,3,09,30,57,167,18*48
$GLGSV,2,1,06,69,24,069,,71,24,294,16,79,30,049,25,80,40,123,*65
$GLGSV,2,2,06,84,06,193,,85,37,245,09*61
$GNGLL,3801.27586,N,00446.88274,W,102147.00,A,A*67

$GNRMC,102148.00,A,3801.27537,N,00446.88180,W,1.590,,011221,,,A*7F
$GNVTG,,T,,M,1.590,N,2.945,K,A*3A
$GNGGA,102148.00,3801.27537,N,00446.88180,W,1,05,1.67,544.8,M,47.8,M,,*5C
$GNGSA,A,3,02,06,30,,,,,,,,,,4.61,1.67,4.29*17
$GNGSA,A,3,79,71,,,,,,,,,,,4.61,1.67,4.29*18
$GPGSV,3,1,09,02,51,274,15,06,45,193,28,07,64,093,,09,39,054,07*7D
$GPGSV,3,2,09,11,60,260,,13,15,250,06,20,48,313,08,29,04,316,*78
$GPGSV,3,3,09,30,57,167,18*48
$GLGSV,2,1,06,69,24,069,,71,24,294,16,79,30,049,25,80,40,123,*65
$GLGSV,2,2,06,84,06,193,,85,37,245,09*61
$GNGLL,3801.27537,N,00446.88180,W,102148.00,A,A*6A

$GNRMC,102149.00,A,3801.27528,N,00446.88180,W,1.726,112.24,011221,,,A*65
$GNVTG,112.24,T,,M,1.726,N,3.197,K,A*29
$GNGGA,102149.00,3801.27528,N,00446.88180,W,1,06,1.56,544.5,M,47.8,M,,*5F
$GNGSA,A,3,02,06,30,,,,,,,,,,4.35,1.56,4.06*19
$GNGSA,A,3,79,71,85,,,,,,,,,,4.35,1.56,4.06*1B
$GPGSV,3,1,09,02,51,274,15,06,45,193,28,07,64,093,,09,39,054,07*7D
$GPGSV,3,2,09,11,60,260,,13,15,250,06,20,48,313,08,29,04,316,*78
$GPGSV,3,3,09,30,57,167,17*47
$GLGSV,2,1,06,69,24,069,,71,24,294,15,79,30,049,25,80,40,123,*66
$GLGSV,2,2,06,84,06,193,,85,37,245,11*68
$GNGLL,3801.27528,N,00446.88180,W,102149.00,A,A*65

$GNRMC,102150.00,A,3801.27535,N,00446.88231,W,1.459,,011221,,,A*79
$GNVTG,,T,,M,1.459,N,2.703,K,A*32
$GNGGA,102150.00,3801.27535,N,00446.88231,W,1,06,1.56,544.1,M,47.8,M,,*56
$GNGSA,A,3,02,06,30,,,,,,,,,,4.35,1.56,4.06*19
$GNGSA,A,3,79,71,85,,,,,,,,,,4.35,1.56,4.06*1B
$GPGSV,3,1,09,02,51,274,14,06,45,193,28,07,64,093,,09,39,054,07*7C
$GPGSV,3,2,09,11,60,260,,13,15,250,,20,48,313,,29,04,316,*76
$GPGSV,3,3,09,30,57,167,18*48
$GLGSV,2,1,06,69,24,069,,71,24,294,15,79,30,049,25,80,40,123,*66
$GLGSV,2,2,06,84,06,193,,85,37,245,13*6A
$GNGLL,3801.27535,N,00446.88231,W,102150.00,A,A*68

$GNRMC,102151.00,A,3801.27539,N,00446.88229,W,1.023,,011221,,,A*74
$GNVTG,,T,,M,1.023,N,1.895,K,A*38
$GNGGA,102151.00,3801.27539,N,00446.88229,W,1,06,1.67,543.9,M,47.8,M,,*5F
$GNGSA,A,3,02,06,30,,,,,,,,,,4.61,1.67,4.29*17
$GNGSA,A,3,79,71,85,,,,,,,,,,4.61,1.67,4.29*15
$GPGSV,3,1,09,02,51,274,14,06,45,193,28,07,64,093,,09,39,054,07*7C
$GPGSV,3,2,09,11,60,260,,13,15,250,,20,48,313,,29,04,316,*76
$GPGSV,3,3,09,30,57,167,17*47
$GLGSV,2,1,06,69,24,069,,71,24,294,14,79,30,049,25,80,40,123,*67
$GLGSV,2,2,06,84,06,193,,85,37,245,12*6B
$GNGLL,3801.27539,N,00446.88229,W,102151.00,A,A*6C

$GNRMC,102152.00,A,3801.27533,N,00446.88214,W,0.857,,011221,,,A*79
$GNVTG,,T,,M,0.857,N,1.588,K,A*33
$GNGGA,102152.00,3801.27533,N,00446.88214,W,1,05,1.67,543.7,M,47.8,M,,*55
$GNGSA,A,3,02,06,30,,,,,,,,,,4.61,1.67,4.29*17
$GNGSA,A,3,79,71,,,,,,,,,,,4.61,1.67,4.29*18
$GPGSV,3,1,09,02,51,274,14,06,45,193,28,07,64,093,,09,39,054,07*7C
$GPGSV,3,2,09,11,60,260,,13,15,250,,20,48,313,,29,04,316,*76
$GPGSV,3,3,09,30,57,167,18*48
$GLGSV,2,1,06,69,24,069,,71,24,294,12,79,30,049,24,80,40,123,*60
$GLGSV,2,2,06,84,06,193,,85,37,245,*68
$GNGLL,3801.27533,N,00446.88214,W,102152.00,A,A*6B

$GNRMC,102153.00,A,3801.27527,N,00446.88197,W,0.746,,011221,,,A*7A
$GNVTG,,T,,M,0.746,N,1.382,K,A*30
$GNGGA,102153.00,3801.27527,N,00446.88197,W,1,05,1.67,543.4,M,47.8,M,,*5A
$GNGSA,A,3,02,06,30,,,,,,,,,,4.61,1.67,4.29*17
$GNGSA,A,3,79,71,,,,,,,,,,,4.61,1.67,4.29*18
$GPGSV,3,1,09,02,51,274,14,06,45,193,28,07,64,093,,09,39,054,07*7C
$GPGSV,3,2,09,11,60,260,,13,15,250,,20,48,313,,29,04,316,*76
$GPGSV,3,3,09,30,57,167,18*48
$GLGSV,2,1,06,69,24,069,,71,24,294,10,79,30,049,24,80,40,123,*62
$GLGSV,2,2,06,84,06,193,,85,37,245,*68
$GNGLL,3801.27527,N,00446.88197,W,102153.00,A,A*67

$GNRMC,102154.00,A,3801.27526,N,00446.88184,W,0.617,,011221,,,A*7B
$GNVTG,,T,,M,0.617,N,1.142,K,A*3B
$GNGGA,102154.00,3801.27526,N,00446.88184,W,1,04,2.12,543.2,M,47.8,M,,*58
$GNGSA,A,3,02,06,30,,,,,,,,,,7.57,2.12,7.27*1D
$GNGSA,A,3,79,,,,,,,,,,,,7.57,2.12,7.27*14
$GPGSV,3,1,09,02,51,274,14,06,45,193,28,07,64,093,,09,39,054,07*7C
$GPGSV,3,2,09,11,60,260,,13,15,250,,20,48,313,,29,04,316,*76
$GPGSV,3,3,09,30,57,167,18*48
$GLGSV,2,1,06,69,24,069,,71,24,294,,79,30,049,23,80,40,123,*64
$GLGSV,2,2,06,84,06,193,,85,37,245,*68
$GNGLL,3801.27526,N,00446.88184,W,102154.00,A,A*63

$GNRMC,102155.00,A,3801.27540,N,00446.88208,W,0.316,,011221,,,A*79
$GNVTG,,T,,M,0.316,N,0.585,K,A*31
$GNGGA,102155.00,3801.27540,N,00446.88208,W,1,04,2.12,543.0,M,47.8,M,,*5C
$GNGSA,A,3,02,06,30,,,,,,,,,,7.56,2.12,7.26*1D
$GNGSA,A,3,79,,,,,,,,,,,,7.56,2.12,7.26*14
$GPGSV,3,1,09,02,51,274,13,06,45,193,28,07,64,093,,09,39,054,07*7B
$GPGSV,3,2,09,11,60,260,,13,15,250,,20,48,313,,29,04,316,*76
$GPGSV,3,3,09,30,57,167,18*48
$GLGSV,2,1,06,69,24,069,,71,24,294,,79,30,049,23,80,40,123,*64
$GLGSV,2,2,06,84,06,193,,85,37,245,*68
$GNGLL,3801.27540,N,00446.88208,W,102155.00,A,A*65

$GNRMC,102156.00,A,3801.27515,N,00446.88143,W,0.671,,011221,,,A*72
$GNVTG,,T,,M,0.671,N,1.243,K,A*39
$GNGGA,102156.00,3801.27515,N,00446.88143,W,1,04,2.12,542.9,M,47.8,M,,*5B
$GNGSA,A,3,02,06,30,,,,,,,,,,7.55,2.12,7.25*1D
$GNGSA,A,3,79,,,,,,,,,,,,7.55,2.12,7.25*14
$GPGSV,3,1,09,02,51,274,13,06,45,193,28,07,64,093,,09,39,054,07*7B
$GPGSV,3,2,09,11,60,260,,13,15,250,,20,48,313,,29,04,316,*76
$GPGSV,3,3,09,30,57,167,17*47
$GLGSV,2,1,06,69,24,069,,71,24,294,,79,30,049,22,80,40,123,*65
$GLGSV,2,2,06,84,06,193,,85,37,245,*68
$GNGLL,3801.27515,N,00446.88143,W,102156.00,A,A*6A

$GNRMC,102157.00,A,3801.27488,N,00446.88109,W,0.705,,011221,,,A*7A
$GNVTG,,T,,M,0.705,N,1.306,K,A*3B
$GNGGA,102157.00,3801.27488,N,00446.88109,W,1,04,2.12,542.8,M,47.8,M,,*50
$GNGSA,A,3,02,06,30,,,,,,,,,,7.55,2.12,7.24*1C
$GNGSA,A,3,79,,,,,,,,,,,,7.55,2.12,7.24*15
$GPGSV,3,1,09,02,51,274,12,06,45,193,28,07,64,093,,09,39,054,07*7A
$GPGSV,3,2,09,11,60,260,,13,15,250,,20,48,313,,29,04,316,*76
$GPGSV,3,3,09,30,57,167,17*47
$GLGSV,2,1,06,69,24,069,,71,24,294,,79,30,049,22,80,40,123,*65
$GLGSV,2,2,06,84,06,193,,85,37,245,*68
$GNGLL,3801.27488,N,00446.88109,W,102157.00,A,A*60

$GNRMC,102158.00,A,3801.27477,N,00446.88077,W,0.761,,011221,,,A*7F
$GNVTG,,T,,M,0.761,N,1.410,K,A*39
$GNGGA,102158.00,3801.27477,N,00446.88077,W,1,04,2.12,542.6,M,47.8,M,,*59
$GNGSA,A,3,02,06,30,,,,,,,,,,7.54,2.12,7.23*1A
$GNGSA,A,3,79,,,,,,,,,,,,7.54,2.12,7.23*13
$GPGSV,3,1,09,02,51,274,09,06,45,193,28,07,64,093,,09,39,054,07*70
$GPGSV,3,2,09,11,60,260,,13,15,250,,20,48,313,,29,04,316,*76
$GPGSV,3,3,09,30,57,167,17*47
$GLGSV,2,1,06,69,24,069,,71,24,294,,79,30,049,21,80,40,123,*66
$GLGSV,2,2,06,84,06,193,,85,37,245,*68
$GNGLL,3801.27477,N,00446.88077,W,102158.00,A,A*67

$GNRMC,102159.00,A,3801.27472,N,00446.88108,W,0.451,,011221,,,A*72
$GNVTG,,T,,M,0.451,N,0.836,K,A*30
$GNGGA,102159.00,3801.27472,N,00446.88108,W,1,04,2.12,542.5,M,47.8,M,,*57
$GNGSA,A,3,02,06,30,,,,,,,,,,7.53,2.12,7.23*1D
$GNGSA,A,3,79,,,,,,,,,,,,7.53,2.12,7.23*14
$GPGSV,3,1,09,02,51,274,08,06,45,193,28,07,64,093,,09,39,054,07*71
$GPGSV,3,2,09,11,60,260,,13,15,250,,20,48,313,,29,04,316,*76
$GPGSV,3,3,09,30,57,167,17*47
$GLGSV,2,1,06,69,24,069,,71,24,294,,79,30,049,21,80,40,123,*66
$GLGSV,2,2,06,84,06,193,,85,37,245,*68
$GNGLL,3801.27472,N,00446.88108,W,102159.00,A,A*6A

$GNRMC,102200.00,V,,,,,,,011221,,,N*63
$GNVTG,,,,,,,,,N*2E
$GNGGA,102200.00,,,,,0,00,99.99,,,,,,*79
$GNGSA,A,1,,,,,,,,,,,,,99.99,99.99,99.99*2E
$GNGSA,A,1,,,,,,,,,,,,,99.99,99.99,99.99*2E
$GPGSV,3,1,09,02,51,274,10,06,45,193,28,07,64,093,,09,39,054,07*78
$GPGSV,3,2,09,11,60,260,,13,15,250,,20,48,313,,29,04,316,*76
$GPGSV,3,3,09,30,57,167,17*47
$GLGSV,2,1,06,69,24,069,,71,24,294,,79,30,049,21,80,40,123,*66
$GLGSV,2,2,06,84,06,193,,85,37,245,*68
$GNGLL,,,,,102200.00,V,N*55

$GNRMC,102201.00,A,3801.27462,N,00446.88139,W,0.171,,011221,,,A*78
$GNVTG,,T,,M,0.171,N,0.316,K,A*3E
$GNGGA,102201.00,3801.27462,N,00446.88139,W,1,04,2.12,542.3,M,47.8,M,,*5C
$GNGSA,A,3,02,06,30,,,,,,,,,,7.52,2.12,7.21*1E
$GNGSA,A,3,79,,,,,,,,,,,,7.52,2.12,7.21*17
$GPGSV,3,1,09,02,51,274,11,06,45,193,28,07,64,093,,09,39,054,07*79
$GPGSV,3,2,09,11,60,260,,13,15,250,,20,48,313,,29,04,316,*76
$GPGSV,3,3,09,30,57,167,17*47
$GLGSV,2,1,06,69,24,069,,71,24,294,,79,30,049,20,80,40,123,*67
$GLGSV,2,2,06,84,06,193,,85,37,245,*68
$GNGLL,3801.27462,N,00446.88139,W,102201.00,A,A*67

$GNRMC,102202.00,A,3801.27514,N,00446.88236,W,0.281,,011221,,,A*7B
$GNVTG,,T,,M,0.281,N,0.520,K,A*31
$GNGGA,102202.00,3801.27514,N,00446.88236,W,1,04,2.12,542.7,M,47.8,M,,*57
$GNGSA,A,3,02,06,30,,,,,,,,,,7.51,2.12,7.20*1C
$GNGSA,A,3,79,,,,,,,,,,,,7.51,2.12,7.20*15
$GPGSV,3,1,09,02,51,274,12,06,45,193,28,07,64,093,,09,39,054,*7D
$GPGSV,3,2,09,11,60,260,,13,15,250,,20,48,313,,29,04,316,*76
$GPGSV,3,3,09,30,57,167,17*47
$GLGSV,2,1,06,69,24,069,,71,24,295,,79,30,049,20,80,40,123,*66
$GLGSV,2,2,06,84,06,193,,85,37,245,*68
$GNGLL,3801.27514,N,00446.88236,W,102202.00,A,A*68

$GNRMC,102203.00,A,3801.27506,N,00446.88255,W,0.385,,011221,,,A*79
$GNVTG,,T,,M,0.385,N,0.714,K,A*31
$GNGGA,102203.00,3801.27506,N,00446.88255,W,1,03,8.78,542.9,M,47.8,M,,*5F
$GNGSA,A,2,06,30,,,,,,,,,,,8.84,8.78,1.00*1A
$GNGSA,A,2,79,,,,,,,,,,,,8.84,8.78,1.00*11
$GPGSV,3,1,09,02,51,274,,06,45,193,28,07,64,093,,09,39,054,*7E
$GPGSV,3,2,09,11,60,260,,13,15,250,,20,48,313,,29,04,316,*76
$GPGSV,3,3,09,30,57,167,17*47
$GLGSV,2,1,06,69,24,069,,71,24,295,,79,30,049,21,80,40,123,*67
$GLGSV,2,2,06,84,06,193,,85,37,245,*68
$GNGLL,3801.27506,N,00446.88255,W,102203.00,A,A*6F

$GNRMC,102204.00,A,3801.27516,N,00446.88229,W,0.053,,011221,,,A*7C
$GNVTG,,T,,M,0.053,N,0.097,K,A*35
$GNGGA,102204.00,3801.27516,N,00446.88229,W,1,03,8.79,542.8,M,47.8,M,,*52
$GNGSA,A,2,06,30,,,,,,,,,,,8.84,8.79,1.00*1B
$GNGSA,A,2,79,,,,,,,,,,,,8.84,8.79,1.00*10
$GPGSV,3,1,09,02,51,274,,06,45,193,28,07,64,093,,09,39,054,07*79
$GPGSV,3,2,09,11,60,260,,13,15,250,,20,48,313,,29,04,316,*76
$GPGSV,3,3,09,30,57,167,17*47
$GLGSV,2,1,06,69,24,069,,71,24,295,,79,30,049,21,80,41,123,*66
$GLGSV,2,2,06,84,06,193,,85,37,245,*68
$GNGLL,3801.27516,N,00446.88229,W,102204.00,A,A*62

$GNRMC,102205.00,A,3801.27498,N,00446.88240,W,0.275,,011221,,,A*73
$GNVTG,,T,,M,0.275,N,0.509,K,A*31
$GNGGA,102205.00,3801.27498,N,00446.88240,W,1,03,8.79,542.6,M,47.8,M,,*55
$GNGSA,A,2,06,30,,,,,,,,,,,8.85,8.79,1.00*1A
$GNGSA,A,2,79,,,,,,,,,,,,8.85,8.79,1.00*11
$GPGSV,3,1,09,02,51,274,,06,45,193,28,07,64,093,,09,39,054,10*7F
$GPGSV,3,2,09,11,60,260,,13,15,250,,20,48,313,,29,04,316,*76
$GPGSV,3,3,09,30,57,167,17*47
$GLGSV,2,1,06,69,24,069,,71,24,295,,79,30,049,20,80,41,123,*67
$GLGSV,2,2,06,84,06,193,,85,37,245,*68
$GNGLL,3801.27498,N,00446.88240,W,102205.00,A,A*6B

$GNRMC,102206.00,A,3801.27517,N,00446.88282,W,0.270,,011221,,,A*7D
$GNVTG,,T,,M,0.270,N,0.501,K,A*3C
$GNGGA,102206.00,3801.27517,N,00446.88282,W,1,03,8.79,542.4,M,47.8,M,,*5C
$GNGSA,A,2,06,30,,,,,,,,,,,8.85,8.79,1.00*1A
$GNGSA,A,2,79,,,,,,,,,,,,8.85,8.79,1.00*11
$GPGSV,3,1,09,02,51,274,,06,45,193,28,07,64,093,,09,39,054,14*7B
$GPGSV,3,2,09,11,60,260,,13,15,250,,20,48,313,07,29,04,316,*71
$GPGSV,3,3,09,30,57,167,18*48
$GLGSV,2,1,06,69,24,069,,71,24,295,,79,30,049,19,80,41,123,*6D
$GLGSV,2,2,06,84,06,193,,85,37,245,*68
$GNGLL,3801.27517,N,00446.88282,W,102206.00,A,A*60

$GNRMC,102207.00,A,3801.27521,N,00446.88271,W,0.080,,011221,,,A*78
$GNVTG,,T,,M,0.080,N,0.148,K,A*38
$GNGGA,102207.00,3801.27521,N,00446.88271,W,1,03,8.80,542.2,M,47.8,M,,*54
$GNGSA,A,2,06,30,,,,,,,,,,,8.86,8.80,1.00*1F
$GNGSA,A,2,79,,,,,,,,,,,,8.86,8.80,1.00*14
$GPGSV,3,1,09,02,51,274,,06,45,193,28,07,64,093,,09,39,054,15*7A
$GPGSV,3,2,09,11,60,260,,13,15,250,06,20,48,313,08,29,04,316,*78
$GPGSV,3,3,09,30,57,167,19*49
$GLGSV,2,1,06,69,24,069,,71,24,295,,79,30,049,20,80,41,123,*67
$GLGSV,2,2,06,84,06,193,,85,37,245,*68
$GNGLL,3801.27521,N,00446.88271,W,102207.00,A,A*68

$GNRMC,102208.00,V,,,,,,,011221,,,N*6B
$GNVTG,,,,,,,,,N*2E
$GNGGA,102208.00,,,,,0,04,28.50,,,,,,*7A
$GNGSA,A,1,06,09,30,,,,,,,,,,36.06,28.50,22.09*27
$GNGSA,A,1,79,,,,,,,,,,,,36.06,28.50,22.09*25
$GPGSV,3,1,09,02,51,274,,06,45,193,28,07,64,093,,09,39,054,16*79
$GPGSV,3,2,09,11,60,260,,13,15,250,07,20,48,313,11,29,04,316,*71
$GPGSV,3,3,09,30,57,167,19*49
$GLGSV,2,1,06,69,24,069,,71,24,295,,79,30,049,19,80,41,123,*6D
$GLGSV,2,2,06,84,06,193,,85,37,245,*68
$GNGLL,,,,,102208.00,V,N*5D

$GNRMC,102209.00,V,,,,,,,011221,,,N*6A
$GNVTG,,,,,,,,,N*2E
$GNGGA,102209.00,,,,,0,04,28.70,,,,,,*79
$GNGSA,A,1,06,09,30,,,,,,,,,,36.29,28.70,22.22*21
$GNGSA,A,1,79,,,,,,,,,,,,36.29,28.70,22.22*23
$GPGSV,3,1,09,02,51,274,,06,45,193,28,07,64,093,,09,39,054,15*7A
$GPGSV,3,2,09,11,60,260,,13,15,250,10,20,48,313,12,29,04,316,*74
$GPGSV,3,3,09,30,57,167,19*49
$GLGSV,2,1,06,69,24,069,,71,24,295,,79,30,049,19,80,41,123,*6D
$GLGSV,2,2,06,84,06,193,,85,37,245,*68
$GNGLL,,,,,102209.00,V,N*5C

$GNRMC,102210.00,A,3801.27803,N,00446.88882,W,2.088,17.92,011221,,,A*5C
$GNVTG,17.92,T,,M,2.088,N,3.866,K,A*17
$GNGGA,102210.00,3801.27803,N,00446.88882,W,1,05,1.73,541.2,M,47.8,M,,*59
$GNGSA,A,3,06,20,09,30,,,,,,,,,6.58,1.73,6.35*1C
$GNGSA,A,3,79,,,,,,,,,,,,6.58,1.73,6.35*1C
$GPGSV,3,1,09,02,51,274,,06,45,193,28,07,64,093,,09,39,054,15*7A
$GPGSV,3,2,09,11,60,260,,13,15,250,09,20,48,313,12,29,04,316,*7C
$GPGSV,3,3,09,30,57,167,19*49
$GLGSV,2,1,06,69,24,069,,71,24,295,,79,30,049,19,80,41,123,*6D
$GLGSV,2,2,06,84,06,193,,85,37,245,*68
$GNGLL,3801.27803,N,00446.88882,W,102210.00,A,A*65

$GNRMC,102211.00,A,3801.27823,N,00446.88971,W,2.066,336.22,011221,,,A*69
$GNVTG,336.22,T,,M,2.066,N,3.827,K,A*29
$GNGGA,102211.00,3801.27823,N,00446.88971,W,1,05,1.73,540.9,M,47.8,M,,*5D
$GNGSA,A,3,06,20,09,30,,,,,,,,,6.58,1.73,6.34*1D
$GNGSA,A,3,79,,,,,,,,,,,,6.58,1.73,6.34*1D
$GPGSV,3,1,09,02,51,274,,06,45,193,29,07,64,093,,09,39,054,15*7B
$GPGSV,3,2,09,11,60,260,,13,15,250,10,20,48,313,14,29,04,316,*72
$GPGSV,3,3,09,30,57,167,19*49
$GLGSV,2,1,06,69,24,069,,71,24,295,,79,30,049,20,80,41,123,*67
$GLGSV,2,2,06,84,06,193,,85,37,245,*68
$GNGLL,3801.27823,N,00446.88971,W,102211.00,A,A*6B

$GNRMC,102212.00,A,3801.27885,N,00446.89099,W,2.202,316.20,011221,,,A*68
$GNVTG,316.20,T,,M,2.202,N,4.078,K,A*2C
$GNGGA,102212.00,3801.27885,N,00446.89099,W,1,05,1.73,540.4,M,47.8,M,,*51
$GNGSA,A,3,06,20,09,30,,,,,,,,,6.57,1.73,6.34*12
$GNGSA,A,3,79,,,,,,,,,,,,6.57,1.73,6.34*12
$GPGSV,3,1,09,02,51,274,,06,45,193,28,07,64,093,,09,39,054,15*7A
$GPGSV,3,2,09,11,60,260,,13,15,250,09,20,48,313,15,29,04,316,*7B
$GPGSV,3,3,09,30,57,167,19*49
$GLGSV,2,1,06,69,24,069,,71,24,295,09,79,30,049,21,80,41,123,*6F
$GLGSV,2,2,06,84,06,193,,85,37,245,*68
$GNGLL,3801.27885,N,00446.89099,W,102212.00,A,A*6A

$GNRMC,102213.00,A,3801.27858,N,00446.89145,W,2.209,303.45,011221,,,A*65
$GNVTG,303.45,T,,M,2.209,N,4.092,K,A*24
$GNGGA,102213.00,3801.27858,N,00446.89145,W,1,05,1.73,540.0,M,47.8,M,,*54
$GNGSA,A,3,06,20,09,30,,,,,,,,,6.57,1.73,6.33*15
$GNGSA,A,3,79,,,,,,,,,,,,6.57,1.73,6.33*15
$GPGSV,3,1,09,02,51,274,,06,45,193,28,07,64,093,,09,39,054,14*7B
$GPGSV,3,2,09,11,60,260,,13,15,250,07,20,48,313,16,29,04,316,*76
$GPGSV,3,3,09,30,57,167,20*43
$GLGSV,2,1,06,69,24,069,,71,24,295,12,79,30,049,21,80,41,123,*65
$GLGSV,2,2,06,84,06,193,,85,37,245,*68
$GNGLL,3801.27858,N,00446.89145,W,102213.00,A,A*6B

$GNRMC,102214.00,A,3801.27843,N,00446.89148,W,1.846,298.65,011221,,,A*66
$GNVTG,298.65,T,,M,1.846,N,3.419,K,A*27
$GNGGA,102214.00,3801.27843,N,00446.89148,W,1,05,1.73,539.6,M,47.8,M,,*5C
$GNGSA,A,3,06,20,09,30,,,,,,,,,6.56,1.73,6.33*14
$GNGSA,A,3,79,,,,,,,,,,,,6.56,1.73,6.33*14
$GPGSV,3,1,09,02,51,274,,06,45,193,29,07,64,093,,09,39,054,15*7B
$GPGSV,3,2,09,11,60,260,,13,15,250,07,20,48,313,17,29,04,316,*77
$GPGSV,3,3,09,30,57,167,20*43
$GLGSV,2,1,06,69,24,069,,71,24,295,13,79,30,049,22,80,41,123,*67
$GLGSV,2,2,06,84,06,193,,85,37,245,*68
$GNGLL,3801.27843,N,00446.89148,W,102214.00,A,A*6B

$GNRMC,102215.00,A,3801.27792,N,00446.89032,W,0.908,,011221,,,A*7C
$GNVTG,,T,,M,0.908,N,1.681,K,A*32
$GNGGA,102215.00,3801.27792,N,00446.89032,W,1,05,1.73,539.2,M,47.8,M,,*56
$GNGSA,A,3,06,20,09,30,,,,,,,,,6.56,1.73,6.32*15
$GNGSA,A,3,79,,,,,,,,,,,,6.56,1.73,6.32*15
$GPGSV,3,1,09,02,51,274,,06,45,193,29,07,64,093,,09,39,054,15*7B
$GPGSV,3,2,09,11,60,260,,13,15,250,07,20,48,313,16,29,04,316,*76
$GPGSV,3,3,09,30,57,167,19*49
$GLGSV,2,1,06,69,24,069,,71,24,295,15,79,30,049,21,80,41,123,*62
$GLGSV,2,2,06,84,06,193,,85,37,245,*68
$GNGLL,3801.27792,N,00446.89032,W,102215.00,A,A*65

$GNRMC,102216.00,A,3801.27613,N,00446.88633,W,0.093,,011221,,,A*7A
$GNVTG,,T,,M,0.093,N,0.173,K,A*32
$GNGGA,102216.00,3801.27613,N,00446.88633,W,1,06,1.29,540.4,M,47.8,M,,*5F
$GNGSA,A,3,06,20,09,30,,,,,,,,,3.84,1.29,3.62*10
$GNGSA,A,3,79,71,,,,,,,,,,,3.84,1.29,3.62*16
$GPGSV,3,1,09,02,51,274,,06,45,193,29,07,64,093,,09,39,054,15*7B
$GPGSV,3,2,09,11,60,260,,13,15,250,07,20,48,313,16,29,04,316,*76
$GPGSV,3,3,09,30,57,167,18*48
$GLGSV,2,1,06,69,24,069,,71,24,295,17,79,30,049,21,80,41,123,*60
$GLGSV,2,2,06,84,06,193,,85,37,245,*68
$GNGLL,3801.27613,N,00446.88633,W,102216.00,A,A*68

$GNRMC,102217.00,A,3801.27500,N,00446.88372,W,0.109,,011221,,,A*78
$GNVTG,,T,,M,0.109,N,0.202,K,A*35
$GNGGA,102217.00,3801.27500,N,00446.88372,W,1,06,1.29,541.5,M,47.8,M,,*5F
$GNGSA,A,3,06,20,09,30,,,,,,,,,3.84,1.29,3.62*10
$GNGSA,A,3,79,71,,,,,,,,,,,3.84,1.29,3.62*16
$GPGSV,3,1,09,02,51,274,,06,45,193,29,07,64,093,,09,39,054,14*7A
$GPGSV,3,2,09,11,60,260,,13,16,250,07,20,48,313,16,29,04,316,*75
$GPGSV,3,3,09,30,57,167,19*49
$GLGSV,2,1,06,69,24,069,,71,24,295,18,79,30,049,21,80,41,123,*6F
$GLGSV,2,2,06,84,06,193,,85,37,245,*68
$GNGLL,3801.27500,N,00446.88372,W,102217.00,A,A*68

$GNRMC,102218.00,A,3801.27399,N,00446.88142,W,0.845,,011221,,,A*71
$GNVTG,,T,,M,0.845,N,1.565,K,A*33
$GNGGA,102218.00,3801.27399,N,00446.88142,W,1,06,1.29,542.3,M,47.8,M,,*52
$GNGSA,A,3,06,20,09,30,,,,,,,,,3.84,1.29,3.61*13
$GNGSA,A,3,79,71,,,,,,,,,,,3.84,1.29,3.61*15
$GPGSV,3,1,09,02,51,274,,06,45,193,29,07,64,093,,09,39,054,13*7D
$GPGSV,3,2,09,11,60,260,,13,16,250,07,20,48,313,17,29,04,316,*74
$GPGSV,3,3,09,30,57,167,18*48
$GLGSV,2,1,06,69,24,069,17,71,24,295,18,79,30,049,21,80,41,123,*69
$GLGSV,2,2,06,84,06,193,,85,37,245,*68
$GNGLL,3801.27399,N,00446.88142,W,102218.00,A,A*60

$GNRMC,102219.00,A,3801.27381,N,00446.88101,W,0.303,,011221,,,A*77
$GNVTG,,T,,M,0.303,N,0.561,K,A*3F
$GNGGA,102219.00,3801.27381,N,00446.88101,W,1,06,1.29,543.0,M,47.8,M,,*5F
$GNGSA,A,3,06,20,09,30,,,,,,,,,3.84,1.29,3.61*13
$GNGSA,A,3,79,71,,,,,,,,,,,3.84,1.29,3.61*15
$GPGSV,3,1,09,02,51,274,,06,45,193,29,07,64,093,,09,39,054,12*7C
$GPGSV,3,2,09,11,60,260,,13,16,250,07,20,48,313,17,29,04,316,*74
$GPGSV,3,3,09,30,57,167,18*48
$GLGSV,2,1,06,69,24,069,16,71,24,295,19,79,30,049,21,80,41,123,*69
$GLGSV,2,2,06,84,06,193,,85,37,245,*68
$GNGLL,3801.27381,N,00446.88101,W,102219.00,A,A*6F

$GNRMC,102220.00,A,3801.27380,N,00446.88066,W,0.143,,011221,,,A*7A
$GNVTG,,T,,M,0.143,N,0.264,K,A*3B
$GNGGA,102220.00,3801.27380,N,00446.88066,W,1,06,1.29,543.5,M,47.8,M,,*51
$GNGSA,A,3,06,20,09,30,,,,,,,,,3.84,1.29,3.61*13
$GNGSA,A,3,79,71,,,,,,,,,,,3.84,1.29,3.61*15
$GPGSV,3,1,09,02,51,274,,06,45,193,29,07,64,093,,09,39,054,13*7D
$GPGSV,3,2,09,11,60,260,,13,16,250,07,20,48,313,19,29,04,316,*7A
$GPGSV,3,3,09,30,57,167,17*47
$GLGSV,2,1,06,69,24,069,16,71,24,295,19,79,30,049,22,80,41,123,*6A
$GLGSV,2,2,06,84,06,193,,85,37,245,*68
$GNGLL,3801.27380,N,00446.88066,W,102220.00,A,A*64

$GNRMC,102221.00,A,3801.27375,N,00446.88040,W,0.169,,011221,,,A*7D
$GNVTG,,T,,M,0.169,N,0.313,K,A*32
$GNGGA,102221.00,3801.27375,N,00446.88040,W,1,06,1.29,543.9,M,47.8,M,,*52
$GNGSA,A,3,06,20,09,30,,,,,,,,,3.84,1.29,3.61*13
$GNGSA,A,3,79,71,,,,,,,,,,,3.84,1.29,3.61*15
$GPGSV,3,1,09,02,51,274,,06,45,193,29,07,64,093,,09,39,054,12*7C
$GPGSV,3,2,09,11,60,260,,13,16,250,07,20,48,313,18,29,04,316,*7B
$GPGSV,3,3,09,30,57,167,18*48
$GLGSV,2,1,06,69,24,069,17,71,24,295,19,79,30,049,21,80,41,123,*68
$GLGSV,2,2,06,84,06,193,,85,37,245,*68
$GNGLL,3801.27375,N,00446.88040,W,102221.00,A,A*6B

$GNRMC,102222.00,A,3801.27380,N,00446.88047,W,0.153,,011221,,,A*7A
$GNVTG,,T,,M,0.153,N,0.283,K,A*33
$GNGGA,102222.00,3801.27380,N,00446.88047,W,1,07,1.19,543.9,M,47.8,M,,*5E
$GNGSA,A,3,06,20,09,30,,,,,,,,,3.22,1.19,2.99*1A
$GNGSA,A,3,79,71,69,,,,,,,,,,3.22,1.19,2.99*13
$GPGSV,3,1,09,02,51,274,,06,45,193,36,07,64,093,,09,39,054,17*77
$GPGSV,3,2,09,11,60,260,,13,16,250,07,20,48,313,21,29,04,316,26*75
$GPGSV,3,3,09,30,57,167,22*41
$GLGSV,2,1,06,69,24,069,17,71,24,295,20,79,30,049,21,80,41,123,*62
$GLGSV,2,2,06,84,06,193,,85,37,245,*68
$GNGLL,3801.27380,N,00446.88047,W,102222.00,A,A*65

$GNRMC,102223.00,A,3801.27414,N,00446.88055,W,0.422,,011221,,,A*71
$GNVTG,,T,,M,0.422,N,0.781,K,A*37
$GNGGA,102223.00,3801.27414,N,00446.88055,W,1,07,1.19,544.0,M,47.8,M,,*58
$GNGSA,A,3,06,20,09,30,,,,,,,,,3.22,1.19,2.99*1A
$GNGSA,A,3,79,71,69,,,,,,,,,,3.22,1.19,2.99*13
$GPGSV,3,1,09,02,51,274,,06,45,193,35,07,64,093,,09,39,054,18*7B
$GPGSV,3,2,09,11,60,260,,13,16,250,07,20,48,313,23,29,04,316,25*74
$GPGSV,3,3,09,30,57,167,24*47
$GLGSV,2,1,06,69,24,069,18,71,24,295,20,79,30,049,22,80,41,123,*6E
$GLGSV,2,2,06,84,06,193,,85,37,245,*68
$GNGLL,3801.27414,N,00446.88055,W,102223.00,A,A*6D

$GNRMC,102224.00,A,3801.27403,N,00446.88084,W,0.273,,011221,,,A*7E
$GNVTG,,T,,M,0.273,N,0.505,K,A*3B
$GNGGA,102224.00,3801.27403,N,00446.88084,W,1,07,1.19,544.0,M,47.8,M,,*55
$GNGSA,A,3,06,20,09,30,,,,,,,,,3.22,1.19,2.99*1A
$GNGSA,A,3,79,71,69,,,,,,,,,,3.22,1.19,2.99*13
$GPGSV,3,1,09,02,51,274,,06,45,193,35,07,64,093,16,09,39,054,19*7D
$GPGSV,3,2,09,11,60,260,,13,16,250,07,20,48,313,24,29,04,316,26*70
$GPGSV,3,3,09,30,57,167,26*45
$GLGSV,2,1,06,69,24,069,18,71,24,295,20,79,30,049,21,80,41,123,*6D
$GLGSV,2,2,06,84,06,193,,85,37,245,*68
$GNGLL,3801.27403,N,00446.88084,W,102224.00,A,A*60

$GNRMC,102225.00,A,3801.27388,N,00446.88140,W,0.257,,011221,,,A*74
$GNVTG,,T,,M,0.257,N,0.476,K,A*38
$GNGGA,102225.00,3801.27388,N,00446.88140,W,1,07,1.19,544.1,M,47.8,M,,*58
$GNGSA,A,3,06,20,09,30,,,,,,,,,3.22,1.19,2.99*1A
$GNGSA,A,3,79,71,69,,,,,,,,,,3.22,1.19,2.99*13
$GPGSV,3,1,09,02,51,274,,06,45,193,35,07,64,093,15,09,39,054,20*74
$GPGSV,3,2,09,11,60,260,,13,16,250,07,20,48,313,23,29,04,316,25*74
$GPGSV,3,3,09,30,57,167,25*46
$GLGSV,2,1,06,69,24,069,18,71,24,295,18,79,30,049,21,80,41,123,*66
$GLGSV,2,2,06,84,06,193,,85,37,245,*68
$GNGLL,3801.27388,N,00446.88140,W,102225.00,A,A*6C

$GNRMC,102226.00,A,3801.27418,N,00446.88192,W,0.303,,011221,,,A*76
$GNVTG,,T,,M,0.303,N,0.560,K,A*3E
$GNGGA,102226.00,3801.27418,N,00446.88192,W,1,07,1.19,544.3,M,47.8,M,,*58
$GNGSA,A,3,06,20,09,30,,,,,,,,,3.22,1.19,2.99*1A
$GNGSA,A,3,79,71,69,,,,,,,,,,3.22,1.19,2.99*13
$GPGSV,3,1,09,02,51,274,,06,45,193,35,07,64,093,13,09,39,054,19*78
$GPGSV,3,2,09,11,60,260,,13,16,250,07,20,48,313,24,29,04,316,24*72
$GPGSV,3,3,09,30,57,167,26*45
$GLGSV,2,1,06,69,24,069,18,71,24,295,20,79,30,049,20,80,41,123,*6C
$GLGSV,2,2,06,84,06,193,,85,37,245,*68
$GNGLL,3801.27418,N,00446.88192,W,102226.00,A,A*6E

$GNRMC,102227.00,A,3801.27469,N,00446.88276,W,0.807,,011221,,,A*77
$GNVTG,,T,,M,0.807,N,1.495,K,A*3B
$GNGGA,102227.00,3801.27469,N,00446.88276,W,1,07,1.19,544.5,M,47.8,M,,*50
$GNGSA,A,3,06,20,09,30,,,,,,,,,3.22,1.19,2.99*1A
$GNGSA,A,3,79,71,69,,,,,,,,,,3.22,1.19,2.99*13
$GPGSV,3,1,09,02,51,274,,06,45,193,26,07,64,093,10,09,39,054,17*77
$GPGSV,3,2,09,11,60,260,,13,16,250,07,20,48,313,21,29,04,316,22*71
$GPGSV,3,3,09,30,57,167,23*40
$GLGSV,2,1,06,69,24,069,17,71,24,295,19,79,30,049,19,80,41,123,*63
$GLGSV,2,2,06,84,06,193,,85,37,245,*68
$GNGLL,3801.27469,N,00446.88276,W,102227.00,A,A*60

$GNRMC,102228.00,A,3801.27474,N,00446.88294,W,0.270,,011221,,,A*72
$GNVTG,,T,,M,0.270,N,0.501,K,A*3C
$GNGGA,102228.00,3801.27474,N,00446.88294,W,1,07,1.19,544.4,M,47.8,M,,*5E
$GNGSA,A,3,06,20,09,30,,,,,,,,,3.22,1.19,2.99*1A
$GNGSA,A,3,79,71,69,,,,,,,,,,3.22,1.19,2.99*13
$GPGSV,3,1,09,02,51,274,,06,45,193,27,07,64,093,09,09,39,054,16*7F
$GPGSV,3,2,09,11,60,260,,13,16,250,07,20,48,313,19,29,04,316,21*79
$GPGSV,3,3,09,30,57,167,21*42
$GLGSV,2,1,06,69,24,069,15,71,24,295,16,79,30,049,18,80,41,123,*6F
$GLGSV,2,2,06,84,06,193,,85,37,245,*68
$GNGLL,3801.27474,N,00446.88294,W,102228.00,A,A*6F

$GNRMC,102229.00,A,3801.27485,N,00446.88313,W,0.190,,011221,,,A*7E
$GNVTG,,T,,M,0.190,N,0.351,K,A*32
$GNGGA,102229.00,3801.27485,N,00446.88313,W,1,06,1.68,544.4,M,47.8,M,,*58
$GNGSA,A,3,06,20,09,30,,,,,,,,,5.22,1.68,4.94*11
$GNGSA,A,3,79,69,,,,,,,,,,,5.22,1.68,4.94*1E
$GPGSV,3,1,09,02,51,274,13,06,45,193,28,07,64,093,09,09,39,054,16*72
$GPGSV,3,2,09,11,60,260,,13,16,250,07,20,48,313,17,29,04,316,18*7D
$GPGSV,3,3,09,30,57,167,19*49
$GLGSV,2,1,06,69,24,069,15,71,24,295,12,79,30,049,18,80,41,123,*6B
$GLGSV,2,2,06,84,06,193,,85,37,245,*68
$GNGLL,3801.27485,N,00446.88313,W,102229.00,A,A*6E

$GNRMC,102230.00,A,3801.27507,N,00446.88405,W,0.252,,011221,,,A*70
$GNVTG,,T,,M,0.252,N,0.466,K,A*3C
$GNGGA,102230.00,3801.27507,N,00446.88405,W,1,08,1.15,544.2,M,47.8,M,,*59
$GNGSA,A,3,07,06,20,09,30,,,,,,,,2.66,1.15,2.40*14
$GNGSA,A,3,79,71,69,,,,,,,,,,2.66,1.15,2.40*1A
$GPGSV,3,1,09,02,51,274,10,06,45,193,27,07,64,093,11,09,39,054,15*74
$GPGSV,3,2,09,11,60,260,,13,16,250,,20,48,313,18,29,04,316,18*75
$GPGSV,3,3,09,30,57,167,18*48
$GLGSV,2,1,06,69,24,069,16,71,24,295,11,79,30,049,17,80,41,123,*64
$GLGSV,2,2,06,84,06,193,,85,37,245,*68
$GNGLL,3801.27507,N,00446.88405,W,102230.00,A,A*6D

$GNRMC,102231.00,A,3801.27540,N,00446.88590,W,1.539,,011221,,,A*74
$GNVTG,,T,,M,1.539,N,2.850,K,A*3C
$GNGGA,102231.00,3801.27540,N,00446.88590,W,1,08,1.15,544.1,M,47.8,M,,*55
$GNGSA,A,3,07,06,20,09,30,,,,,,,,2.66,1.15,2.40*14
$GNGSA,A,3,79,71,69,,,,,,,,,,2.66,1.15,2.40*1A
$GPGSV,3,1,09,02,51,274,06,06,45,193,27,07,64,093,11,09,39,054,15*73
$GPGSV,3,2,09,11,60,260,,13,16,250,,20,48,313,18,29,04,316,16*7B
$GPGSV,3,3,09,30,57,167,18*48
$GLGSV,2,1,06,69,24,069,16,71,24,295,14,79,30,049,16,80,41,123,*60
$GLGSV,2,2,06,84,06,193,,85,37,245,*68
$GNGLL,3801.27540,N,00446.88590,W,102231.00,A,A*62

$GNRMC,102232.00,A,3801.27559,N,00446.88620,W,0.927,,011221,,,A*75
$GNVTG,,T,,M,0.927,N,1.717,K,A*31
$GNGGA,102232.00,3801.27559,N,00446.88620,W,1,07,1.18,544.1,M,47.8,M,,*54
$GNGSA,A,3,06,20,09,30,,,,,,,,,3.21,1.18,2.99*18
$GNGSA,A,3,79,71,69,,,,,,,,,,3.21,1.18,2.99*11
$GPGSV,3,1,09,02,51,274,05,06,45,193,27,07,64,093,10,09,39,054,15*71
$GPGSV,3,2,09,11,60,260,,13,16,250,,20,48,313,17,29,04,316,14*76
$GPGSV,3,3,09,30,57,167,17*47
$GLGSV,2,1,06,69,24,069,16,71,24,295,15,79,30,049,16,80,41,123,*61
$GLGSV,2,2,06,84,06,193,,85,37,245,*68
$GNGLL,3801.27559,N,00446.88620,W,102232.00,A,A*61

$GNRMC,102233.00,A,3801.27666,N,00446.88832,W,2.466,295.67,011221,,,A*6D
$GNVTG,295.67,T,,M,2.466,N,4.568,K,A*25
$GNGGA,102233.00,3801.27666,N,00446.88832,W,1,07,1.18,544.0,M,47.8,M,,*56
$GNGSA,A,3,06,20,09,30,,,,,,,,,3.21,1.18,2.99*18
$GNGSA,A,3,79,71,69,,,,,,,,,,3.21,1.18,2.99*11
$GPGSV,3,1,09,02,51,274,04,06,45,193,27,07,64,093,09,09,39,054,14*79
$GPGSV,3,2,09,11,60,260,,13,16,250,,20,48,313,16,29,04,316,14*77
$GPGSV,3,3,09,30,57,167,17*47
$GLGSV,2,1,06,69,24,069,15,71,24,295,14,79,30,049,15,80,41,123,*60
$GLGSV,2,2,06,84,06,193,,85,37,245,*68
$GNGLL,3801.27666,N,00446.88832,W,102233.00,A,A*62

$GNRMC,102234.00,A,3801.27772,N,00446.88959,W,2.853,301.41,011221,,,A*60
$GNVTG,301.41,T,,M,2.853,N,5.284,K,A*23
$GNGGA,102234.00,3801.27772,N,00446.88959,W,1,07,1.18,543.9,M,47.8,M,,*57
$GNGSA,A,3,06,20,09,30,,,,,,,,,3.21,1.18,2.99*18
$GNGSA,A,3,79,71,69,,,,,,,,,,3.21,1.18,2.99*11
$GPGSV,3,1,09,02,51,274,04,06,45,193,27,07,64,093,08,09,39,054,14*78
$GPGSV,3,2,09,11,60,260,,13,16,250,,20,48,313,15,29,04,316,14*74
$GPGSV,3,3,09,30,57,167,16*46
$GLGSV,2,1,06,69,24,069,16,71,24,295,14,79,30,049,13,80,41,123,*65
$GLGSV,2,2,06,84,06,193,,85,37,245,*68
$GNGLL,3801.27772,N,00446.88959,W,102234.00,A,A*6D

$GNRMC,102235.00,A,3801.27792,N,00446.89035,W,2.316,300.32,011221,,,A*62
$GNVTG,300.32,T,,M,2.316,N,4.289,K,A*20
$GNGGA,102235.00,3801.27792,N,00446.89035,W,1,06,1.24,543.9,M,47.8,M,,*54
$GNGSA,A,3,06,20,09,30,,,,,,,,,3.23,1.24,2.99*15
$GNGSA,A,3,71,69,,,,,,,,,,,3.23,1.24,2.99*12
$GPGSV,3,1,09,02,51,274,04,06,45,193,27,07,64,093,08,09,39,054,12*7E
$GPGSV,3,2,09,11,60,260,,13,16,250,,20,48,313,15,29,04,316,15*75
$GPGSV,3,3,09,30,57,167,14*44
$GLGSV,2,1,06,69,24,069,16,71,24,295,12,79,30,049,,80,41,123,*61
$GLGSV,2,2,06,84,06,193,,85,37,245,*68
$GNGLL,3801.27792,N,00446.89035,W,102235.00,A,A*60

$GNRMC,102236.00,A,3801.27790,N,00446.89168,W,2.417,291.17,011221,,,A*62
$GNVTG,291.17,T,,M,2.417,N,4.476,K,A*2E
$GNGGA,102236.00,3801.27790,N,00446.89168,W,1,06,1.24,544.0,M,47.8,M,,*52
$GNGSA,A,3,06,20,09,30,,,,,,,,,3.23,1.24,2.99*15
$GNGSA,A,3,71,69,,,,,,,,,,,3.23,1.24,2.99*12
$GPGSV,3,1,09,02,51,274,04,06,45,193,27,07,64,093,08,09,39,054,13*7F
$GPGSV,3,2,09,11,60,260,,13,16,250,,20,48,313,16,29,04,316,14*77
$GPGSV,3,3,09,30,57,167,15*45
$GLGSV,2,1,06,69,24,069,16,71,24,295,10,79,30,049,,80,41,123,*63
$GLGSV,2,2,06,84,06,193,,85,37,245,*68
$GNGLL,3801.27790,N,00446.89168,W,102236.00,A,A*68

$GNRMC,102237.00,A,3801.27791,N,00446.89199,W,1.794,,011221,,,A*75
$GNVTG,,T,,M,1.794,N,3.323,K,A*37
$GNGGA,102237.00,3801.27791,N,00446.89199,W,1,04,2.17,544.1,M,47.8,M,,*5C
$GNGSA,A,3,06,20,30,,,,,,,,,,6.41,2.17,6.03*19
$GNGSA,A,3,69,,,,,,,,,,,,6.41,2.17,6.03*11
$GPGSV,3,1,09,02,51,274,04,06,45,193,27,07,64,093,09,09,39,054,*7C
$GPGSV,3,2,09,11,60,260,,13,16,250,,20,48,313,16,29,04,316,15*76
$GPGSV,3,3,09,30,57,167,15*45
$GLGSV,2,1,06,69,24,069,16,71,24,295,09,79,30,049,,80,41,123,*6B
$GLGSV,2,2,06,84,06,193,,85,37,245,*68
$GNGLL,3801.27791,N,00446.89199,W,102237.00,A,A*66

$GNRMC,102238.00,A,3801.27788,N,00446.89212,W,1.190,,011221,,,A*70
$GNVTG,,T,,M,1.190,N,2.205,K,A*31
$GNGGA,102238.00,3801.27788,N,00446.89212,W,1,06,1.30,543.9,M,47.8,M,,*50
$GNGSA,A,3,07,06,20,30,,,,,,,,,2.76,1.30,2.43*18
$GNGSA,A,3,71,69,,,,,,,,,,,2.76,1.30,2.43*11
$GPGSV,3,1,09,02,51,274,04,06,45,193,27,07,64,093,10,09,39,054,*74
$GPGSV,3,2,09,11,60,260,,13,16,250,,20,48,313,15,29,04,316,13*73
$GPGSV,3,3,09,30,57,167,16*46
$GLGSV,2,1,06,69,24,069,16,71,24,295,12,79,30,048,,80,41,123,*60
$GLGSV,2,2,06,84,06,193,,85,37,245,*68
$GNGLL,3801.27788,N,00446.89212,W,102238.00,A,A*61

$GNRMC,102239.00,A,3801.27846,N,00446.89359,W,1.825,,011221,,,A*75
$GNVTG,,T,,M,1.825,N,3.380,K,A*3B
$GNGGA,102239.00,3801.27846,N,00446.89359,W,1,06,1.30,543.7,M,47.8,M,,*5C
$GNGSA,A,3,07,06,20,30,,,,,,,,,2.76,1.30,2.43*18
$GNGSA,A,3,71,69,,,,,,,,,,,2.76,1.30,2.43*11
$GPGSV,3,1,09,02,51,274,04,06,45,193,27,07,64,093,11,09,39,054,16*72
$GPGSV,3,2,09,11,60,260,,13,16,250,,20,48,313,15,29,04,316,11*71
$GPGSV,3,3,09,30,57,167,16*46
$GLGSV,2,1,06,69,24,069,15,71,24,295,10,79,30,048,,80,41,123,*61
$GLGSV,2,2,06,84,06,193,,85,37,245,*68
$GNGLL,3801.27846,N,00446.89359,W,102239.00,A,A*63

$GNRMC,102240.00,A,3801.27858,N,00446.89353,W,1.060,,011221,,,A*77
$GNVTG,,T,,M,1.060,N,1.963,K,A*37
$GNGGA,102240.00,3801.27858,N,00446.89353,W,1,06,1.30,543.5,M,47.8,M,,*55
$GNGSA,A,3,07,06,20,30,,,,,,,,,2.76,1.30,2.43*18
$GNGSA,A,3,71,69,,,,,,,,,,,2.76,1.30,2.43*11
$GPGSV,3,1,09,02,51,274,04,06,45,193,27,07,64,093,12,09,39,054,15*72
$GPGSV,3,2,09,11,60,260,,13,16,250,15,20,48,313,16,29,04,316,10*77
$GPGSV,3,3,09,30,57,167,17*47
$GLGSV,2,1,06,69,24,069,15,71,24,295,10,79,30,048,,80,41,123,*61
$GLGSV,2,2,06,84,06,193,,85,37,245,*68
$GNGLL,3801.27858,N,00446.89353,W,102240.00,A,A*68

$GNRMC,102241.00,A,3801.27886,N,00446.89425,W,1.126,,011221,,,A*70
$GNVTG,,T,,M,1.126,N,2.085,K,A*36
$GNGGA,102241.00,3801.27886,N,00446.89425,W,1,06,1.30,543.4,M,47.8,M,,*50
$GNGSA,A,3,07,06,20,30,,,,,,,,,2.76,1.30,2.43*18
$GNGSA,A,3,71,69,,,,,,,,,,,2.76,1.30,2.43*11
$GPGSV,3,1,09,02,51,274,04,06,45,193,27,07,64,093,12,09,39,054,14*73
$GPGSV,3,2,09,11,60,260,,13,16,250,14,20,48,313,16,29,04,316,08*7F
$GPGSV,3,3,09,30,57,167,16*46
$GLGSV,2,1,06,69,24,069,15,71,24,295,09,79,30,048,,80,41,123,*69
$GLGSV,2,2,06,84,06,193,,85,37,245,*68
$GNGLL,3801.27886,N,00446.89425,W,102241.00,A,A*6C

$GNRMC,102242.00,A,3801.27889,N,00446.89447,W,0.907,,011221,,,A*72
$GNVTG,,T,,M,0.907,N,1.680,K,A*3C
$GNGGA,102242.00,3801.27889,N,00446.89447,W,1,04,2.16,543.5,M,47.8,M,,*5C
$GNGSA,A,3,06,20,30,,,,,,,,,,6.38,2.16,6.00*15
$GNGSA,A,3,69,,,,,,,,,,,,6.38,2.16,6.00*1D
$GPGSV,3,1,09,02,51,274,04,06,45,193,27,07,64,093,,09,39,054,14*70
$GPGSV,3,2,09,11,60,260,,13,16,250,13,20,48,313,17,29,04,316,08*79
$GPGSV,3,3,09,30,57,167,16*46
$GLGSV,2,1,06,69,24,069,15,71,24,295,09,79,30,048,,80,41,123,*69
$GLGSV,2,2,06,84,06,193,,85,37,245,*68
$GNGLL,3801.27889,N,00446.89447,W,102242.00,A,A*64

$GNRMC,102243.00,A,3801.27903,N,00446.89424,W,0.342,,011221,,,A*7E
$GNVTG,,T,,M,0.342,N,0.633,K,A*3E
$GNGGA,102243.00,3801.27903,N,00446.89424,W,1,05,1.70,543.5,M,47.8,M,,*59
$GNGSA,A,3,06,20,09,30,,,,,,,,,5.23,1.70,4.94*19
$GNGSA,A,3,69,,,,,,,,,,,,5.23,1.70,4.94*18
$GPGSV,3,1,09,02,51,274,04,06,45,193,26,07,64,093,,09,39,054,13*76
$GPGSV,3,2,09,11,60,259,,13,16,250,12,20,48,313,17,29,04,316,*7A
$GPGSV,3,3,09,30,57,167,16*46
$GLGSV,2,1,06,69,24,069,14,71,24,295,09,79,30,048,,80,41,123,*68
$GLGSV,2,2,06,84,05,193,,85,37,245,*6B
$GNGLL,3801.27903,N,00446.89424,W,102243.00,A,A*63

$GNRMC,102244.00,A,3801.27909,N,00446.89468,W,0.340,,011221,,,A*79
$GNVTG,,T,,M,0.340,N,0.629,K,A*37
$GNGGA,102244.00,3801.27909,N,00446.89468,W,1,05,1.70,543.6,M,47.8,M,,*5F
$GNGSA,A,3,06,20,09,30,,,,,,,,,5.22,1.70,4.94*18
$GNGSA,A,3,69,,,,,,,,,,,,5.22,1.70,4.94*19
$GPGSV,3,1,09,02,51,274,04,06,45,193,26,07,64,093,,09,39,054,12*77
$GPGSV,3,2,09,11,60,259,,13,16,250,09,20,48,313,17,29,04,316,*70
$GPGSV,3,3,09,30,57,167,15*45
$GLGSV,2,1,06,69,24,069,12,71,24,295,09,79,30,048,,80,41,123,*6E
$GLGSV,2,2,06,84,05,193,,85,37,245,*6B
$GNGLL,3801.27909,N,00446.89468,W,102244.00,A,A*66

$GNRMC,102245.00,A,3801.27973,N,00446.89555,W,0.831,,011221,,,A*77
$GNVTG,,T,,M,0.831,N,1.539,K,A*39
$GNGGA,102245.00,3801.27973,N,00446.89555,W,1,05,1.70,543.5,M,47.8,M,,*5F
$GNGSA,A,3,06,20,09,30,,,,,,,,,5.22,1.70,4.93*1F
$GNGSA,A,3,69,,,,,,,,,,,,5.22,1.70,4.93*1E
$GPGSV,3,1,09,02,51,273,04,06,45,193,26,07,64,093,,09,39,054,13*71
$GPGSV,3,2,09,11,60,259,,13,16,250,09,20,48,313,16,29,04,316,*71
$GPGSV,3,3,09,30,57,167,16*46
$GLGSV,2,1,06,69,24,069,12,71,24,295,08,79,30,048,,80,41,123,*6F
$GLGSV,2,2,06,84,05,193,,85,37,245,*6B
$GNGLL,3801.27973,N,00446.89555,W,102245.00,A,A*65

$GNRMC,102246.00,A,3801.28014,N,00446.89536,W,0.890,,011221,,,A*7D
$GNVTG,,T,,M,0.890,N,1.648,K,A*37
$GNGGA,102246.00,3801.28014,N,00446.89536,W,1,06,1.21,544.5,M,47.8,M,,*5E
$GNGSA,A,3,06,20,09,13,30,,,,,,,,2.42,1.21,2.10*15
$GNGSA,A,3,69,,,,,,,,,,,,2.42,1.21,2.10*16
$GPGSV,3,1,09,02,51,273,04,06,45,193,26,07,64,093,,09,39,054,12*70
$GPGSV,3,2,09,11,60,259,,13,16,250,11,20,48,313,16,29,04,316,*78
$GPGSV,3,3,09,30,57,167,17*47
$GLGSV,2,1,06,69,24,069,14,71,24,295,08,79,30,048,,80,41,123,*69
$GLGSV,2,2,06,84,05,193,,85,37,245,*6B
$GNGLL,3801.28014,N,00446.89536,W,102246.00,A,A*64

$GNRMC,102247.00,A,3801.28021,N,00446.89528,W,0.518,,011221,,,A*78
$GNVTG,,T,,M,0.518,N,0.959,K,A*34
$GNGGA,102247.00,3801.28021,N,00446.89528,W,1,05,1.70,544.6,M,47.8,M,,*52
$GNGSA,A,3,06,20,09,30,,,,,,,,,5.22,1.70,4.93*1F
$GNGSA,A,3,69,,,,,,,,,,,,5.22,1.70,4.93*1E
$GPGSV,3,1,09,02,51,273,04,06,45,193,26,07,64,092,,09,39,054,10*73
$GPGSV,3,2,09,11,60,259,,13,16,250,09,20,48,313,16,29,04,316,*71
$GPGSV,3,3,09,30,57,167,17*47
$GLGSV,2,1,06,69,24,069,13,71,24,295,10,79,30,048,,80,41,123,*67
$GLGSV,2,2,06,84,05,193,,85,37,245,*6B
$GNGLL,3801.28021,N,00446.89528,W,102247.00,A,A*6C

$GNRMC,102248.00,A,3801.28061,N,00446.89635,W,0.763,,011221,,,A*72
$GNVTG,,T,,M,0.763,N,1.413,K,A*38
$GNGGA,102248.00,3801.28061,N,00446.89635,W,1,06,1.23,544.5,M,47.8,M,,*50
$GNGSA,A,3,06,20,09,30,,,,,,,,,3.23,1.23,2.98*13
$GNGSA,A,3,71,69,,,,,,,,,,,3.23,1.23,2.98*14
$GPGSV,3,1,09,02,51,273,,06,45,193,26,07,64,092,,09,39,054,11*76
$GPGSV,3,2,09,11,60,259,,13,16,250,09,20,48,313,16,29,04,316,*71
$GPGSV,3,3,09,30,57,167,17*47
$GLGSV,2,1,06,69,24,069,13,71,24,295,10,79,30,048,,80,41,123,*67
$GLGSV,2,2,06,84,05,193,,85,37,245,07*6C
$GNGLL,3801.28061,N,00446.89635,W,102248.00,A,A*68

$GNRMC,102249.00,A,3801.28023,N,00446.89640,W,0.338,,011221,,,A*7D
$GNVTG,,T,,M,0.338,N,0.627,K,A*36
$GNGGA,102249.00,3801.28023,N,00446.89640,W,1,06,1.23,544.6,M,47.8,M,,*56
$GNGSA,A,3,06,20,09,30,,,,,,,,,3.23,1.23,2.98*13
$GNGSA,A,3,71,69,,,,,,,,,,,3.23,1.23,2.98*14
$GPGSV,3,1,09,02,51,273,,06,45,193,26,07,64,092,,09,39,054,10*77
$GPGSV,3,2,09,11,60,259,,13,16,250,08,20,48,313,14,29,04,316,*72
$GPGSV,3,3,09,30,57,167,17*47
$GLGSV,2,1,06,69,24,069,11,71,24,295,10,79,30,048,,80,41,123,*65
$GLGSV,2,2,06,84,05,193,,85,37,245,08*63
$GNGLL,3801.28023,N,00446.89640,W,102249.00,A,A*6D

$GNRMC,102250.00,A,3801.28031,N,00446.89678,W,0.371,,011221,,,A*70
$GNVTG,,T,,M,0.371,N,0.688,K,A*3E
$GNGGA,102250.00,3801.28031,N,00446.89678,W,1,05,1.44,544.6,M,47.8,M,,*54
$GNGSA,A,3,06,20,09,30,,,,,,,,,4.26,1.44,4.01*16
$GNGSA,A,3,71,,,,,,,,,,,,4.26,1.44,4.01*1E
$GPGSV,3,1,09,02,51,273,,06,45,193,26,07,64,092,,09,39,054,12*75
$GPGSV,3,2,09,11,60,259,,13,16,250,10,20,48,313,15,29,04,316,*7A
$GPGSV,3,3,09,30,57,167,18*48
$GLGSV,2,1,06,69,24,069,10,71,24,295,10,79,30,048,,80,41,123,*64
$GLGSV,2,2,06,84,05,193,,85,37,245,12*68
$GNGLL,3801.28031,N,00446.89678,W,102250.00,A,A*6D

$GNRMC,102251.00,A,3801.28034,N,00446.89642,W,0.335,,011221,,,A*7D
$GNVTG,,T,,M,0.335,N,0.621,K,A*3D
$GNGGA,102251.00,3801.28034,N,00446.89642,W,1,06,1.23,544.8,M,47.8,M,,*55
$GNGSA,A,3,06,20,09,30,,,,,,,,,3.22,1.23,2.98*12
$GNGSA,A,3,71,69,,,,,,,,,,,3.22,1.23,2.98*15
$GPGSV,3,1,09,02,51,273,,06,45,193,25,07,64,092,16,09,39,054,11*72
$GPGSV,3,2,09,11,60,259,,13,16,250,09,20,48,313,15,29,04,316,*72
$GPGSV,3,3,09,30,57,167,18*48
$GLGSV,2,1,06,69,24,069,08,71,24,295,09,79,30,048,,80,41,123,*65
$GLGSV,2,2,06,84,05,193,,85,37,245,13*69
$GNGLL,3801.28034,N,00446.89642,W,102251.00,A,A*60

$GNRMC,102252.00,A,3801.28098,N,00446.89670,W,0.873,,011221,,,A*70
$GNVTG,,T,,M,0.873,N,1.617,K,A*30
$GNGGA,102252.00,3801.28098,N,00446.89670,W,1,07,1.14,544.7,M,47.8,M,,*5B
$GNGSA,A,3,06,20,09,30,,,,,,,,,3.09,1.14,2.87*11
$GNGSA,A,3,71,85,69,,,,,,,,,,3.09,1.14,2.87*1B
$GPGSV,3,1,09,02,51,273,,06,45,193,25,07,64,092,15,09,39,054,11*71
$GPGSV,3,2,09,11,60,259,,13,16,250,08,20,48,313,16,29,04,316,*70
$GPGSV,3,3,09,30,57,167,17*47
$GLGSV,2,1,06,69,24,069,11,71,24,295,09,79,30,048,,80,41,123,*6D
$GLGSV,2,2,06,84,05,193,,85,37,245,13*69
$GNGLL,3801.28098,N,00446.89670,W,102252.00,A,A*64

$GNRMC,102253.00,A,3801.28159,N,00446.89706,W,1.010,,011221,,,A*71
$GNVTG,,T,,M,1.010,N,1.871,K,A*32
$GNGGA,102253.00,3801.28159,N,00446.89706,W,1,06,1.29,544.7,M,47.8,M,,*59
$GNGSA,A,3,06,20,30,,,,,,,,,,3.27,1.29,3.00*14
$GNGSA,A,3,71,85,69,,,,,,,,,,3.27,1.29,3.00*17
$GPGSV,3,1,09,02,51,273,,06,45,193,25,07,64,092,13,09,39,054,10*76
$GPGSV,3,2,09,11,60,259,,13,16,250,09,20,48,313,15,29,04,316,*72
$GPGSV,3,3,09,30,57,167,15*45
$GLGSV,2,1,06,69,24,069,10,71,24,295,10,79,30,048,,80,41,123,*64
$GLGSV,2,2,06,84,05,193,,85,37,245,13*69
$GNGLL,3801.28159,N,00446.89706,W,102253.00,A,A*69

$GNRMC,102254.00,A,3801.28222,N,00446.89719,W,1.084,,011221,,,A*7A
$GNVTG,,T,,M,1.084,N,2.007,K,A*35
$GNGGA,102254.00,3801.28222,N,00446.89719,W,1,03,4.45,544.7,M,47.8,M,,*55
$GNGSA,A,2,06,20,30,,,,,,,,,,4.56,4.45,1.00*19
$GNGSA,A,2,,,,,,,,,,,,,4.56,4.45,1.00*1E
$GPGSV,3,1,09,02,51,273,,06,45,193,25,07,64,092,12,09,39,054,08*7E
$GPGSV,3,2,09,11,60,259,,13,16,250,10,20,49,313,14,29,04,316,*7A
$GPGSV,3,3,09,30,57,167,13*43
$GLGSV,2,1,06,69,24,069,10,71,24,295,,79,30,048,,80,41,123,*65
$GLGSV,2,2,06,84,05,193,,85,37,245,10*6A
$GNGLL,3801.28222,N,00446.89719,W,102254.00,A,A*6F

$GNRMC,102255.00,A,3801.28258,N,00446.89712,W,1.137,,011221,,,A*74
$GNVTG,,T,,M,1.137,N,2.105,K,A*3F
$GNGGA,102255.00,3801.28258,N,00446.89712,W,1,03,4.45,544.8,M,47.8,M,,*5D
$GNGSA,A,2,06,20,30,,,,,,,,,,4.56,4.45,1.00*19
$GNGSA,A,2,,,,,,,,,,,,,4.56,4.45,1.00*1E
$GPGSV,3,1,09,02,51,273,,06,45,193,25,07,64,092,10,09,39,054,08*7C
$GPGSV,3,2,09,11,60,259,,13,16,250,,20,49,313,14,29,04,316,*7B
$GPGSV,3,3,09,30,57,167,10*40
$GLGSV,2,1,06,69,24,069,10,71,24,295,,79,30,048,,80,41,123,*65
$GLGSV,2,2,06,84,05,193,,85,37,245,08*63
$GNGLL,3801.28258,N,00446.89712,W,102255.00,A,A*68

$GNRMC,102256.00,A,3801.28242,N,00446.89618,W,1.216,,011221,,,A*77
$GNVTG,,T,,M,1.216,N,2.251,K,A*3D
$GNGGA,102256.00,3801.28242,N,00446.89618,W,1,03,4.45,544.8,M,47.8,M,,*5E
$GNGSA,A,2,06,20,30,,,,,,,,,,4.56,4.45,1.00*19
$GNGSA,A,2,,,,,,,,,,,,,4.56,4.45,1.00*1E
$GPGSV,3,1,09,02,51,273,,06,45,193,26,07,64,092,09,09,39,054,10*7E
$GPGSV,3,2,09,11,60,259,,13,16,250,,20,49,313,13,29,04,316,*7C
$GPGSV,3,3,09,30,58,167,08*46
$GLGSV,2,1,06,69,24,069,10,71,24,295,,79,30,048,,80,41,123,*65
$GLGSV,2,2,06,84,05,193,,85,37,245,08*63
$GNGLL,3801.28242,N,00446.89618,W,102256.00,A,A*6B

$GNRMC,102257.00,A,3801.28294,N,00446.89558,W,1.723,,011221,,,A*79
$GNVTG,,T,,M,1.723,N,3.192,K,A*33
$GNGGA,102257.00,3801.28294,N,00446.89558,W,1,03,4.45,544.9,M,47.8,M,,*52
$GNGSA,A,2,06,20,30,,,,,,,,,,4.56,4.45,1.00*19
$GNGSA,A,2,,,,,,,,,,,,,4.56,4.45,1.00*1E
$GPGSV,3,1,09,02,51,273,,06,45,193,25,07,64,092,08,09,39,054,10*7C
$GPGSV,3,2,09,11,60,259,,13,16,250,,20,49,313,14,29,04,316,*7B
$GPGSV,3,3,09,30,58,167,07*49
$GLGSV,2,1,06,69,24,069,15,71,24,295,,79,30,048,,80,41,123,*60
$GLGSV,2,2,06,84,05,193,,85,37,245,10*6A
$GNGLL,3801.28294,N,00446.89558,W,102257.00,A,A*66

$GNRMC,102258.00,A,3801.28374,N,00446.89486,W,2.161,,011221,,,A*78
$GNVTG,,T,,M,2.161,N,4.002,K,A*3F
$GNGGA,102258.00,3801.28374,N,00446.89486,W,1,04,1.57,544.8,M,47.8,M,,*50
$GNGSA,A,3,06,20,09,,,,,,,,,,8.92,1.57,8.78*16
$GNGSA,A,3,85,,,,,,,,,,,,8.92,1.57,8.78*16
$GPGSV,3,1,09,02,51,273,,06,45,193,25,07,64,092,08,09,39,054,11*7D
$GPGSV,3,2,09,11,60,259,,13,16,250,,20,49,313,16,29,04,316,*79
$GPGSV,3,3,09,30,58,167,07*49
$GLGSV,2,1,06,69,24,069,15,71,24,295,,79,30,048,,80,41,123,*60
$GLGSV,2,2,06,84,05,193,,85,37,245,12*68
$GNGLL,3801.28374,N,00446.89486,W,102258.00,A,A*64
